<?xml version="1.0" encoding="UTF-8" ?>
<root>
  <row>
    <name>Afghanistan</name>
    <alpha2code>AF</alpha2code>
    <alpha3code>AFG</alpha3code>
    <latitude>33.93911</latitude>
    <longitude>67.709953</longitude>
  </row>
  <row>
    <name>Åland Islands</name>
    <alpha2code>AX</alpha2code>
    <alpha3code>ALA</alpha3code>
    <latitude>60.1995487</latitude>
    <longitude>20.3711715</longitude>
  </row>
  <row>
    <name>Albania</name>
    <alpha2code>AL</alpha2code>
    <alpha3code>ALB</alpha3code>
    <latitude>41.153332</latitude>
    <longitude>20.168331</longitude>
  </row>
  <row>
    <name>Algeria</name>
    <alpha2code>DZ</alpha2code>
    <alpha3code>DZA</alpha3code>
    <latitude>28.033886</latitude>
    <longitude>1.659626</longitude>
  </row>
  <row>
    <name>American Samoa</name>
    <alpha2code>AS</alpha2code>
    <alpha3code>ASM</alpha3code>
    <latitude>-14.270972</latitude>
    <longitude>-170.132217</longitude>
  </row>
  <row>
    <name>Andorra</name>
    <alpha2code>AD</alpha2code>
    <alpha3code>AND</alpha3code>
    <latitude>42.546245</latitude>
    <longitude>1.601554</longitude>
  </row>
  <row>
    <name>Angola</name>
    <alpha2code>AO</alpha2code>
    <alpha3code>AGO</alpha3code>
    <latitude>-11.202692</latitude>
    <longitude>17.873887</longitude>
  </row>
  <row>
    <name>Anguilla</name>
    <alpha2code>AI</alpha2code>
    <alpha3code>AIA</alpha3code>
    <latitude>18.220554</latitude>
    <longitude>-63.068615</longitude>
  </row>
  <row>
    <name>Antarctica</name>
    <alpha2code>AQ</alpha2code>
    <alpha3code>ATA</alpha3code>
    <latitude>-75.250973</latitude>
    <longitude>-0.071389</longitude>
  </row>
  <row>
    <name>Antigua and Barbuda</name>
    <alpha2code>AG</alpha2code>
    <alpha3code>ATG</alpha3code>
    <latitude>17.060816</latitude>
    <longitude>-61.796428</longitude>
  </row>
  <row>
    <name>Argentina</name>
    <alpha2code>AR</alpha2code>
    <alpha3code>ARG</alpha3code>
    <latitude>-38.416097</latitude>
    <longitude>-63.616672</longitude>
  </row>
  <row>
    <name>Armenia</name>
    <alpha2code>AM</alpha2code>
    <alpha3code>ARM</alpha3code>
    <latitude>40.069099</latitude>
    <longitude>45.038189</longitude>
  </row>
  <row>
    <name>Aruba</name>
    <alpha2code>AW</alpha2code>
    <alpha3code>ABW</alpha3code>
    <latitude>12.52111</latitude>
    <longitude>-69.968338</longitude>
  </row>
  <row>
    <name>Australia</name>
    <alpha2code>AU</alpha2code>
    <alpha3code>AUS</alpha3code>
    <latitude>-25.274398</latitude>
    <longitude>133.775136</longitude>
  </row>
  <row>
    <name>Austria</name>
    <alpha2code>AT</alpha2code>
    <alpha3code>AUT</alpha3code>
    <latitude>47.516231</latitude>
    <longitude>14.550072</longitude>
  </row>
  <row>
    <name>Azerbaijan</name>
    <alpha2code>AZ</alpha2code>
    <alpha3code>AZE</alpha3code>
    <latitude>40.143105</latitude>
    <longitude>47.576927</longitude>
  </row>
  <row>
    <name>Bahamas</name>
    <alpha2code>BS</alpha2code>
    <alpha3code>BHS</alpha3code>
    <latitude>25.03428</latitude>
    <longitude>-77.39628</longitude>
  </row>
  <row>
    <name>Bahrain</name>
    <alpha2code>BH</alpha2code>
    <alpha3code>BHR</alpha3code>
    <latitude>25.930414</latitude>
    <longitude>50.637772</longitude>
  </row>
  <row>
    <name>Bangladesh</name>
    <alpha2code>BD</alpha2code>
    <alpha3code>BGD</alpha3code>
    <latitude>23.684994</latitude>
    <longitude>90.356331</longitude>
  </row>
  <row>
    <name>Barbados</name>
    <alpha2code>BB</alpha2code>
    <alpha3code>BRB</alpha3code>
    <latitude>13.193887</latitude>
    <longitude>-59.543198</longitude>
  </row>
  <row>
    <name>Belarus</name>
    <alpha2code>BY</alpha2code>
    <alpha3code>BLR</alpha3code>
    <latitude>53.709807</latitude>
    <longitude>27.953389</longitude>
  </row>
  <row>
    <name>Belgium</name>
    <alpha2code>BE</alpha2code>
    <alpha3code>BEL</alpha3code>
    <latitude>50.503887</latitude>
    <longitude>4.469936</longitude>
  </row>
  <row>
    <name>Belize</name>
    <alpha2code>BZ</alpha2code>
    <alpha3code>BLZ</alpha3code>
    <latitude>17.189877</latitude>
    <longitude>-88.49765</longitude>
  </row>
  <row>
    <name>Benin</name>
    <alpha2code>BJ</alpha2code>
    <alpha3code>BEN</alpha3code>
    <latitude>9.30769</latitude>
    <longitude>2.315834</longitude>
  </row>
  <row>
    <name>Bermuda</name>
    <alpha2code>BM</alpha2code>
    <alpha3code>BMU</alpha3code>
    <latitude>32.321384</latitude>
    <longitude>-64.75737</longitude>
  </row>
  <row>
    <name>Bhutan</name>
    <alpha2code>BT</alpha2code>
    <alpha3code>BTN</alpha3code>
    <latitude>27.514162</latitude>
    <longitude>90.433601</longitude>
  </row>
  <row>
    <name>Bolivia</name>
    <alpha2code>BO</alpha2code>
    <alpha3code>BOL</alpha3code>
    <latitude>-16.290154</latitude>
    <longitude>-63.588653</longitude>
  </row>
  <row>
    <name>Bonaire, Sint Eustatius and Saba</name>
    <alpha2code>BQ</alpha2code>
    <alpha3code>BES</alpha3code>
    <latitude>12.1683718</latitude>
    <longitude>-68.308183</longitude>
  </row>
  <row>
    <name>Bosnia and Herzegovina</name>
    <alpha2code>BA</alpha2code>
    <alpha3code>BIH</alpha3code>
    <latitude>43.915886</latitude>
    <longitude>17.679076</longitude>
  </row>
  <row>
    <name>Botswana</name>
    <alpha2code>BW</alpha2code>
    <alpha3code>BWA</alpha3code>
    <latitude>-22.328474</latitude>
    <longitude>24.684866</longitude>
  </row>
  <row>
    <name>Bouvet Island</name>
    <alpha2code>BV</alpha2code>
    <alpha3code>BVT</alpha3code>
    <latitude>-54.423199</latitude>
    <longitude>3.413194</longitude>
  </row>
  <row>
    <name>Brazil</name>
    <alpha2code>BR</alpha2code>
    <alpha3code>BRA</alpha3code>
    <latitude>-14.235004</latitude>
    <longitude>-51.92528</longitude>
  </row>
  <row>
    <name>British Indian Ocean Territory</name>
    <alpha2code>IO</alpha2code>
    <alpha3code>IOT</alpha3code>
    <latitude>-6.343194</latitude>
    <longitude>71.876519</longitude>
  </row>
  <row>
    <name>British Virgin Islands</name>
    <alpha2code>VG</alpha2code>
    <alpha3code>VGB</alpha3code>
    <latitude>18.420695</latitude>
    <longitude>-64.639968</longitude>
  </row>
  <row>
    <name>Brunei</name>
    <alpha2code>BN</alpha2code>
    <alpha3code>BRN</alpha3code>
    <latitude>4.535277</latitude>
    <longitude>114.727669</longitude>
  </row>
  <row>
    <name>Bulgaria</name>
    <alpha2code>BG</alpha2code>
    <alpha3code>BGR</alpha3code>
    <latitude>42.733883</latitude>
    <longitude>25.48583</longitude>
  </row>
  <row>
    <name>Burkina Faso</name>
    <alpha2code>BF</alpha2code>
    <alpha3code>BFA</alpha3code>
    <latitude>12.238333</latitude>
    <longitude>-1.561593</longitude>
  </row>
  <row>
    <name>Burundi</name>
    <alpha2code>BI</alpha2code>
    <alpha3code>BDI</alpha3code>
    <latitude>-3.373056</latitude>
    <longitude>29.918886</longitude>
  </row>
  <row>
    <name>Cabo Verde</name>
    <alpha2code>CV</alpha2code>
    <alpha3code>CPV</alpha3code>
    <latitude>16.002082</latitude>
    <longitude>-24.013197</longitude>
  </row>
  <row>
    <name>Cambodia</name>
    <alpha2code>KH</alpha2code>
    <alpha3code>KHM</alpha3code>
    <latitude>12.565679</latitude>
    <longitude>104.990963</longitude>
  </row>
  <row>
    <name>Cameroon</name>
    <alpha2code>CM</alpha2code>
    <alpha3code>CMR</alpha3code>
    <latitude>7.369722</latitude>
    <longitude>12.354722</longitude>
  </row>
  <row>
    <name>Canada</name>
    <alpha2code>CA</alpha2code>
    <alpha3code>CAN</alpha3code>
    <latitude>56.130366</latitude>
    <longitude>-106.346771</longitude>
  </row>
  <row>
    <name>CAR</name>
    <alpha2code>CF</alpha2code>
    <alpha3code>CAF</alpha3code>
    <latitude>6.611111</latitude>
    <longitude>20.939444</longitude>
  </row>
  <row>
    <name>Cayman Islands</name>
    <alpha2code>KY</alpha2code>
    <alpha3code>CYM</alpha3code>
    <latitude>19.513469</latitude>
    <longitude>-80.566956</longitude>
  </row>
  <row>
    <name>Chad</name>
    <alpha2code>TD</alpha2code>
    <alpha3code>TCD</alpha3code>
    <latitude>15.454166</latitude>
    <longitude>18.732207</longitude>
  </row>
  <row>
    <name>Channel Islands</name>
    <alpha2code/>
    <alpha3code/>
    <latitude>49.372284</latitude>
    <longitude>-2.364351</longitude>
  </row>
  <row>
    <name>Chile</name>
    <alpha2code>CL</alpha2code>
    <alpha3code>CHL</alpha3code>
    <latitude>-35.675147</latitude>
    <longitude>-71.542969</longitude>
  </row>
  <row>
    <name>China</name>
    <alpha2code>CN</alpha2code>
    <alpha3code>CHN</alpha3code>
    <latitude>35.86166</latitude>
    <longitude>104.195397</longitude>
  </row>
  <row>
    <name>Christmas Island</name>
    <alpha2code>CX</alpha2code>
    <alpha3code>CXR</alpha3code>
    <latitude>-10.447525</latitude>
    <longitude>105.690449</longitude>
  </row>
  <row>
    <name>Cocos (Keeling) Islands</name>
    <alpha2code>CC</alpha2code>
    <alpha3code>CCK</alpha3code>
    <latitude>-12.164165</latitude>
    <longitude>96.870956</longitude>
  </row>
  <row>
    <name>Colombia</name>
    <alpha2code>CO</alpha2code>
    <alpha3code>COL</alpha3code>
    <latitude>4.570868</latitude>
    <longitude>-74.297333</longitude>
  </row>
  <row>
    <name>Comoros</name>
    <alpha2code>KM</alpha2code>
    <alpha3code>COM</alpha3code>
    <latitude>-11.875001</latitude>
    <longitude>43.872219</longitude>
  </row>
  <row>
    <name>Congo</name>
    <alpha2code>CG</alpha2code>
    <alpha3code>COG</alpha3code>
    <latitude>-0.228021</latitude>
    <longitude>15.827659</longitude>
  </row>
  <row>
    <name>Cook Islands</name>
    <alpha2code>CK</alpha2code>
    <alpha3code>COK</alpha3code>
    <latitude>-21.236736</latitude>
    <longitude>-159.777671</longitude>
  </row>
  <row>
    <name>Costa Rica</name>
    <alpha2code>CR</alpha2code>
    <alpha3code>CRI</alpha3code>
    <latitude>9.748917</latitude>
    <longitude>-83.753428</longitude>
  </row>
  <row>
    <name>Croatia</name>
    <alpha2code>HR</alpha2code>
    <alpha3code>HRV</alpha3code>
    <latitude>45.1</latitude>
    <longitude>15.2</longitude>
  </row>
  <row>
    <name>Cuba</name>
    <alpha2code>CU</alpha2code>
    <alpha3code>CUB</alpha3code>
    <latitude>21.521757</latitude>
    <longitude>-77.781167</longitude>
  </row>
  <row>
    <name>Curaçao</name>
    <alpha2code>CW</alpha2code>
    <alpha3code>CUW</alpha3code>
    <latitude>12.16957</latitude>
    <longitude>-68.990021</longitude>
  </row>
  <row>
    <name>Cyprus</name>
    <alpha2code>CY</alpha2code>
    <alpha3code>CYP</alpha3code>
    <latitude>35.126413</latitude>
    <longitude>33.429859</longitude>
  </row>
  <row>
    <name>Czech Republic</name>
    <alpha2code>CZ</alpha2code>
    <alpha3code>CZE</alpha3code>
    <latitude>49.817492</latitude>
    <longitude>15.472962</longitude>
  </row>
  <row>
    <name>Denmark</name>
    <alpha2code>DK</alpha2code>
    <alpha3code>DNK</alpha3code>
    <latitude>56.26392</latitude>
    <longitude>9.501785</longitude>
  </row>
  <row>
    <name>Diamond Princess</name>
    <alpha2code/>
    <alpha3code/>
    <latitude/>
    <longitude/>
  </row>
  <row>
    <name>Djibouti</name>
    <alpha2code>DJ</alpha2code>
    <alpha3code>DJI</alpha3code>
    <latitude>11.825138</latitude>
    <longitude>42.590275</longitude>
  </row>
  <row>
    <name>Dominica</name>
    <alpha2code>DM</alpha2code>
    <alpha3code>DMA</alpha3code>
    <latitude>15.414999</latitude>
    <longitude>-61.370976</longitude>
  </row>
  <row>
    <name>Dominican Republic</name>
    <alpha2code>DO</alpha2code>
    <alpha3code>DOM</alpha3code>
    <latitude>18.735693</latitude>
    <longitude>-70.162651</longitude>
  </row>
  <row>
    <name>DRC</name>
    <alpha2code>CD</alpha2code>
    <alpha3code>COD</alpha3code>
    <latitude>-4.038333</latitude>
    <longitude>21.758664</longitude>
  </row>
  <row>
    <name>Ecuador</name>
    <alpha2code>EC</alpha2code>
    <alpha3code>ECU</alpha3code>
    <latitude>-1.831239</latitude>
    <longitude>-78.183406</longitude>
  </row>
  <row>
    <name>Egypt</name>
    <alpha2code>EG</alpha2code>
    <alpha3code>EGY</alpha3code>
    <latitude>26.820553</latitude>
    <longitude>30.802498</longitude>
  </row>
  <row>
    <name>El Salvador</name>
    <alpha2code>SV</alpha2code>
    <alpha3code>SLV</alpha3code>
    <latitude>13.794185</latitude>
    <longitude>-88.89653</longitude>
  </row>
  <row>
    <name>Equatorial Guinea</name>
    <alpha2code>GQ</alpha2code>
    <alpha3code>GNQ</alpha3code>
    <latitude>1.650801</latitude>
    <longitude>10.267895</longitude>
  </row>
  <row>
    <name>Eritrea</name>
    <alpha2code>ER</alpha2code>
    <alpha3code>ERI</alpha3code>
    <latitude>15.179384</latitude>
    <longitude>39.782334</longitude>
  </row>
  <row>
    <name>Estonia</name>
    <alpha2code>EE</alpha2code>
    <alpha3code>EST</alpha3code>
    <latitude>58.595272</latitude>
    <longitude>25.013607</longitude>
  </row>
  <row>
    <name>Eswatini</name>
    <alpha2code>SZ</alpha2code>
    <alpha3code>SWZ</alpha3code>
    <latitude>-26.522503</latitude>
    <longitude>31.465866</longitude>
  </row>
  <row>
    <name>Ethiopia</name>
    <alpha2code>ET</alpha2code>
    <alpha3code>ETH</alpha3code>
    <latitude>9.145</latitude>
    <longitude>40.489673</longitude>
  </row>
  <row>
    <name>Faeroe Islands</name>
    <alpha2code>FO</alpha2code>
    <alpha3code>FRO</alpha3code>
    <latitude>61.892635</latitude>
    <longitude>-6.911806</longitude>
  </row>
  <row>
    <name>Falkland Islands</name>
    <alpha2code>FK</alpha2code>
    <alpha3code>FLK</alpha3code>
    <latitude>-51.796253</latitude>
    <longitude>-59.523613</longitude>
  </row>
  <row>
    <name>Fiji</name>
    <alpha2code>FJ</alpha2code>
    <alpha3code>FJI</alpha3code>
    <latitude>-16.578193</latitude>
    <longitude>179.414413</longitude>
  </row>
  <row>
    <name>Finland</name>
    <alpha2code>FI</alpha2code>
    <alpha3code>FIN</alpha3code>
    <latitude>61.92411</latitude>
    <longitude>25.748151</longitude>
  </row>
  <row>
    <name>France</name>
    <alpha2code>FR</alpha2code>
    <alpha3code>FRA</alpha3code>
    <latitude>46.227638</latitude>
    <longitude>2.213749</longitude>
  </row>
  <row>
    <name>French Guiana</name>
    <alpha2code>GF</alpha2code>
    <alpha3code>GUF</alpha3code>
    <latitude>3.933889</latitude>
    <longitude>-53.125782</longitude>
  </row>
  <row>
    <name>French Polynesia</name>
    <alpha2code>PF</alpha2code>
    <alpha3code>PYF</alpha3code>
    <latitude>-17.679742</latitude>
    <longitude>-149.406843</longitude>
  </row>
  <row>
    <name>French Southern Territories</name>
    <alpha2code>TF</alpha2code>
    <alpha3code>ATF</alpha3code>
    <latitude>-49.280366</latitude>
    <longitude>69.348557</longitude>
  </row>
  <row>
    <name>Gabon</name>
    <alpha2code>GA</alpha2code>
    <alpha3code>GAB</alpha3code>
    <latitude>-0.803689</latitude>
    <longitude>11.609444</longitude>
  </row>
  <row>
    <name>Gambia</name>
    <alpha2code>GM</alpha2code>
    <alpha3code>GMB</alpha3code>
    <latitude>13.443182</latitude>
    <longitude>-15.310139</longitude>
  </row>
  <row>
    <name>Georgia</name>
    <alpha2code>GE</alpha2code>
    <alpha3code>GEO</alpha3code>
    <latitude>42.315407</latitude>
    <longitude>43.356892</longitude>
  </row>
  <row>
    <name>Germany</name>
    <alpha2code>DE</alpha2code>
    <alpha3code>DEU</alpha3code>
    <latitude>51.165691</latitude>
    <longitude>10.451526</longitude>
  </row>
  <row>
    <name>Ghana</name>
    <alpha2code>GH</alpha2code>
    <alpha3code>GHA</alpha3code>
    <latitude>7.946527</latitude>
    <longitude>-1.023194</longitude>
  </row>
  <row>
    <name>Gibraltar</name>
    <alpha2code>GI</alpha2code>
    <alpha3code>GIB</alpha3code>
    <latitude>36.137741</latitude>
    <longitude>-5.345374</longitude>
  </row>
  <row>
    <name>Greece</name>
    <alpha2code>GR</alpha2code>
    <alpha3code>GRC</alpha3code>
    <latitude>39.074208</latitude>
    <longitude>21.824312</longitude>
  </row>
  <row>
    <name>Greenland</name>
    <alpha2code>GL</alpha2code>
    <alpha3code>GRL</alpha3code>
    <latitude>71.706936</latitude>
    <longitude>-42.604303</longitude>
  </row>
  <row>
    <name>Grenada</name>
    <alpha2code>GD</alpha2code>
    <alpha3code>GRD</alpha3code>
    <latitude>12.262776</latitude>
    <longitude>-61.604171</longitude>
  </row>
  <row>
    <name>Guadeloupe</name>
    <alpha2code>GP</alpha2code>
    <alpha3code>GLP</alpha3code>
    <latitude>16.995971</latitude>
    <longitude>-62.067641</longitude>
  </row>
  <row>
    <name>Guam</name>
    <alpha2code>GU</alpha2code>
    <alpha3code>GUM</alpha3code>
    <latitude>13.444304</latitude>
    <longitude>144.793731</longitude>
  </row>
  <row>
    <name>Guatemala</name>
    <alpha2code>GT</alpha2code>
    <alpha3code>GTM</alpha3code>
    <latitude>15.783471</latitude>
    <longitude>-90.230759</longitude>
  </row>
  <row>
    <name>Guernsey</name>
    <alpha2code>GG</alpha2code>
    <alpha3code>GGY</alpha3code>
    <latitude>49.465691</latitude>
    <longitude>-2.585278</longitude>
  </row>
  <row>
    <name>Guinea</name>
    <alpha2code>GN</alpha2code>
    <alpha3code>GIN</alpha3code>
    <latitude>9.945587</latitude>
    <longitude>-9.696645</longitude>
  </row>
  <row>
    <name>Guinea-Bissau</name>
    <alpha2code>GW</alpha2code>
    <alpha3code>GNB</alpha3code>
    <latitude>11.803749</latitude>
    <longitude>-15.180413</longitude>
  </row>
  <row>
    <name>Guyana</name>
    <alpha2code>GY</alpha2code>
    <alpha3code>GUY</alpha3code>
    <latitude>4.860416</latitude>
    <longitude>-58.93018</longitude>
  </row>
  <row>
    <name>Haiti</name>
    <alpha2code>HT</alpha2code>
    <alpha3code>HTI</alpha3code>
    <latitude>18.971187</latitude>
    <longitude>-72.285215</longitude>
  </row>
  <row>
    <name>Heard Island and Mcdonald Islands</name>
    <alpha2code>HM</alpha2code>
    <alpha3code>HMD</alpha3code>
    <latitude>-53.08181</latitude>
    <longitude>73.504158</longitude>
  </row>
  <row>
    <name>Honduras</name>
    <alpha2code>HN</alpha2code>
    <alpha3code>HND</alpha3code>
    <latitude>15.199999</latitude>
    <longitude>-86.241905</longitude>
  </row>
  <row>
    <name>Hong Kong</name>
    <alpha2code>HK</alpha2code>
    <alpha3code>HKG</alpha3code>
    <latitude>22.396428</latitude>
    <longitude>114.109497</longitude>
  </row>
  <row>
    <name>Hungary</name>
    <alpha2code>HU</alpha2code>
    <alpha3code>HUN</alpha3code>
    <latitude>47.162494</latitude>
    <longitude>19.503304</longitude>
  </row>
  <row>
    <name>Iceland</name>
    <alpha2code>IS</alpha2code>
    <alpha3code>ISL</alpha3code>
    <latitude>64.963051</latitude>
    <longitude>-19.020835</longitude>
  </row>
  <row>
    <name>India</name>
    <alpha2code>IN</alpha2code>
    <alpha3code>IND</alpha3code>
    <latitude>20.593684</latitude>
    <longitude>78.96288</longitude>
  </row>
  <row>
    <name>Indonesia</name>
    <alpha2code>ID</alpha2code>
    <alpha3code>IDN</alpha3code>
    <latitude>-0.789275</latitude>
    <longitude>113.921327</longitude>
  </row>
  <row>
    <name>Iran</name>
    <alpha2code>IR</alpha2code>
    <alpha3code>IRN</alpha3code>
    <latitude>32.427908</latitude>
    <longitude>53.688046</longitude>
  </row>
  <row>
    <name>Iraq</name>
    <alpha2code>IQ</alpha2code>
    <alpha3code>IRQ</alpha3code>
    <latitude>33.223191</latitude>
    <longitude>43.679291</longitude>
  </row>
  <row>
    <name>Ireland</name>
    <alpha2code>IE</alpha2code>
    <alpha3code>IRL</alpha3code>
    <latitude>53.41291</latitude>
    <longitude>-8.24389</longitude>
  </row>
  <row>
    <name>Isle of Man</name>
    <alpha2code>IM</alpha2code>
    <alpha3code>IMN</alpha3code>
    <latitude>54.236107</latitude>
    <longitude>-4.548056</longitude>
  </row>
  <row>
    <name>Israel</name>
    <alpha2code>IL</alpha2code>
    <alpha3code>ISR</alpha3code>
    <latitude>31.046051</latitude>
    <longitude>34.851612</longitude>
  </row>
  <row>
    <name>Italy</name>
    <alpha2code>IT</alpha2code>
    <alpha3code>ITA</alpha3code>
    <latitude>41.87194</latitude>
    <longitude>12.56738</longitude>
  </row>
  <row>
    <name>Ivory Coast</name>
    <alpha2code>CI</alpha2code>
    <alpha3code>CIV</alpha3code>
    <latitude>7.539989</latitude>
    <longitude>-5.54708</longitude>
  </row>
  <row>
    <name>Jamaica</name>
    <alpha2code>JM</alpha2code>
    <alpha3code>JAM</alpha3code>
    <latitude>18.109581</latitude>
    <longitude>-77.297508</longitude>
  </row>
  <row>
    <name>Japan</name>
    <alpha2code>JP</alpha2code>
    <alpha3code>JPN</alpha3code>
    <latitude>36.204824</latitude>
    <longitude>138.252924</longitude>
  </row>
  <row>
    <name>Jersey</name>
    <alpha2code>JE</alpha2code>
    <alpha3code>JEY</alpha3code>
    <latitude>49.214439</latitude>
    <longitude>-2.13125</longitude>
  </row>
  <row>
    <name>Jordan</name>
    <alpha2code>JO</alpha2code>
    <alpha3code>JOR</alpha3code>
    <latitude>30.585164</latitude>
    <longitude>36.238414</longitude>
  </row>
  <row>
    <name>Kazakhstan</name>
    <alpha2code>KZ</alpha2code>
    <alpha3code>KAZ</alpha3code>
    <latitude>48.019573</latitude>
    <longitude>66.923684</longitude>
  </row>
  <row>
    <name>Kenya</name>
    <alpha2code>KE</alpha2code>
    <alpha3code>KEN</alpha3code>
    <latitude>-0.023559</latitude>
    <longitude>37.906193</longitude>
  </row>
  <row>
    <name>Kiribati</name>
    <alpha2code>KI</alpha2code>
    <alpha3code>KIR</alpha3code>
    <latitude>-3.370417</latitude>
    <longitude>-168.734039</longitude>
  </row>
  <row>
    <name>Kosovo* (disputed teritory)</name>
    <alpha2code/>
    <alpha3code>XK</alpha3code>
    <latitude>42.66394</latitude>
    <longitude>21.09611</longitude>
  </row>
  <row>
    <name>Kuwait</name>
    <alpha2code>KW</alpha2code>
    <alpha3code>KWT</alpha3code>
    <latitude>29.31166</latitude>
    <longitude>47.481766</longitude>
  </row>
  <row>
    <name>Kyrgyzstan</name>
    <alpha2code>KG</alpha2code>
    <alpha3code>KGZ</alpha3code>
    <latitude>41.20438</latitude>
    <longitude>74.766098</longitude>
  </row>
  <row>
    <name>Laos</name>
    <alpha2code>LA</alpha2code>
    <alpha3code>LAO</alpha3code>
    <latitude>19.85627</latitude>
    <longitude>102.495496</longitude>
  </row>
  <row>
    <name>Latvia</name>
    <alpha2code>LV</alpha2code>
    <alpha3code>LVA</alpha3code>
    <latitude>56.879635</latitude>
    <longitude>24.603189</longitude>
  </row>
  <row>
    <name>Lebanon</name>
    <alpha2code>LB</alpha2code>
    <alpha3code>LBN</alpha3code>
    <latitude>33.854721</latitude>
    <longitude>35.862285</longitude>
  </row>
  <row>
    <name>Lesotho</name>
    <alpha2code>LS</alpha2code>
    <alpha3code>LSO</alpha3code>
    <latitude>-29.609988</latitude>
    <longitude>28.233608</longitude>
  </row>
  <row>
    <name>Liberia</name>
    <alpha2code>LR</alpha2code>
    <alpha3code>LBR</alpha3code>
    <latitude>6.428055</latitude>
    <longitude>-9.429499</longitude>
  </row>
  <row>
    <name>Libya</name>
    <alpha2code>LY</alpha2code>
    <alpha3code>LBY</alpha3code>
    <latitude>26.3351</latitude>
    <longitude>17.228331</longitude>
  </row>
  <row>
    <name>Liechtenstein</name>
    <alpha2code>LI</alpha2code>
    <alpha3code>LIE</alpha3code>
    <latitude>47.166</latitude>
    <longitude>9.555373</longitude>
  </row>
  <row>
    <name>Lithuania</name>
    <alpha2code>LT</alpha2code>
    <alpha3code>LTU</alpha3code>
    <latitude>55.169438</latitude>
    <longitude>23.881275</longitude>
  </row>
  <row>
    <name>Luxembourg</name>
    <alpha2code>LU</alpha2code>
    <alpha3code>LUX</alpha3code>
    <latitude>49.815273</latitude>
    <longitude>6.129583</longitude>
  </row>
  <row>
    <name>Macao</name>
    <alpha2code>MO</alpha2code>
    <alpha3code>MAC</alpha3code>
    <latitude>22.198745</latitude>
    <longitude>113.543873</longitude>
  </row>
  <row>
    <name>Madagascar</name>
    <alpha2code>MG</alpha2code>
    <alpha3code>MDG</alpha3code>
    <latitude>-18.766947</latitude>
    <longitude>46.869107</longitude>
  </row>
  <row>
    <name>Malawi</name>
    <alpha2code>MW</alpha2code>
    <alpha3code>MWI</alpha3code>
    <latitude>-13.254308</latitude>
    <longitude>34.301525</longitude>
  </row>
  <row>
    <name>Malaysia</name>
    <alpha2code>MY</alpha2code>
    <alpha3code>MYS</alpha3code>
    <latitude>4.210484</latitude>
    <longitude>101.975766</longitude>
  </row>
  <row>
    <name>Maldives</name>
    <alpha2code>MV</alpha2code>
    <alpha3code>MDV</alpha3code>
    <latitude>3.202778</latitude>
    <longitude>73.22068</longitude>
  </row>
  <row>
    <name>Mali</name>
    <alpha2code>ML</alpha2code>
    <alpha3code>MLI</alpha3code>
    <latitude>17.570692</latitude>
    <longitude>-3.996166</longitude>
  </row>
  <row>
    <name>Malta</name>
    <alpha2code>MT</alpha2code>
    <alpha3code>MLT</alpha3code>
    <latitude>35.937496</latitude>
    <longitude>14.375416</longitude>
  </row>
  <row>
    <name>Marshall Islands</name>
    <alpha2code>MH</alpha2code>
    <alpha3code>MHL</alpha3code>
    <latitude>7.131474</latitude>
    <longitude>171.184478</longitude>
  </row>
  <row>
    <name>Martinique</name>
    <alpha2code>MQ</alpha2code>
    <alpha3code>MTQ</alpha3code>
    <latitude>14.641528</latitude>
    <longitude>-61.024174</longitude>
  </row>
  <row>
    <name>Mauritania</name>
    <alpha2code>MR</alpha2code>
    <alpha3code>MRT</alpha3code>
    <latitude>21.00789</latitude>
    <longitude>-10.940835</longitude>
  </row>
  <row>
    <name>Mauritius</name>
    <alpha2code>MU</alpha2code>
    <alpha3code>MUS</alpha3code>
    <latitude>-20.348404</latitude>
    <longitude>57.552152</longitude>
  </row>
  <row>
    <name>Mayotte</name>
    <alpha2code>YT</alpha2code>
    <alpha3code>MYT</alpha3code>
    <latitude>-12.8275</latitude>
    <longitude>45.166244</longitude>
  </row>
  <row>
    <name>Mexico</name>
    <alpha2code>MX</alpha2code>
    <alpha3code>MEX</alpha3code>
    <latitude>23.634501</latitude>
    <longitude>-102.552784</longitude>
  </row>
  <row>
    <name>Micronesia</name>
    <alpha2code>FM</alpha2code>
    <alpha3code>FSM</alpha3code>
    <latitude>7.425554</latitude>
    <longitude>150.550812</longitude>
  </row>
  <row>
    <name>Moldova</name>
    <alpha2code>MD</alpha2code>
    <alpha3code>MDA</alpha3code>
    <latitude>47.411631</latitude>
    <longitude>28.369885</longitude>
  </row>
  <row>
    <name>Monaco</name>
    <alpha2code>MC</alpha2code>
    <alpha3code>MCO</alpha3code>
    <latitude>43.750298</latitude>
    <longitude>7.412841</longitude>
  </row>
  <row>
    <name>Mongolia</name>
    <alpha2code>MN</alpha2code>
    <alpha3code>MNG</alpha3code>
    <latitude>46.862496</latitude>
    <longitude>103.846656</longitude>
  </row>
  <row>
    <name>Montenegro</name>
    <alpha2code>ME</alpha2code>
    <alpha3code>MNE</alpha3code>
    <latitude>42.708678</latitude>
    <longitude>19.37439</longitude>
  </row>
  <row>
    <name>Montserrat</name>
    <alpha2code>MS</alpha2code>
    <alpha3code>MSR</alpha3code>
    <latitude>16.742498</latitude>
    <longitude>-62.187366</longitude>
  </row>
  <row>
    <name>Morocco</name>
    <alpha2code>MA</alpha2code>
    <alpha3code>MAR</alpha3code>
    <latitude>31.791702</latitude>
    <longitude>-7.09262</longitude>
  </row>
  <row>
    <name>Mozambique</name>
    <alpha2code>MZ</alpha2code>
    <alpha3code>MOZ</alpha3code>
    <latitude>-18.665695</latitude>
    <longitude>35.529562</longitude>
  </row>
  <row>
    <name>MS Zaandam</name>
    <alpha2code/>
    <alpha3code/>
    <latitude/>
    <longitude/>
  </row>
  <row>
    <name>Myanmar</name>
    <alpha2code>MM</alpha2code>
    <alpha3code>MMR</alpha3code>
    <latitude>21.913965</latitude>
    <longitude>95.956223</longitude>
  </row>
  <row>
    <name>Namibia</name>
    <alpha2code>NA</alpha2code>
    <alpha3code>NAM</alpha3code>
    <latitude>-22.95764</latitude>
    <longitude>18.49041</longitude>
  </row>
  <row>
    <name>Nauru</name>
    <alpha2code>NR</alpha2code>
    <alpha3code>NRU</alpha3code>
    <latitude>-0.522778</latitude>
    <longitude>166.931503</longitude>
  </row>
  <row>
    <name>Nepal</name>
    <alpha2code>NP</alpha2code>
    <alpha3code>NPL</alpha3code>
    <latitude>28.394857</latitude>
    <longitude>84.124008</longitude>
  </row>
  <row>
    <name>Netherlands</name>
    <alpha2code>NL</alpha2code>
    <alpha3code>NLD</alpha3code>
    <latitude>52.132633</latitude>
    <longitude>5.291266</longitude>
  </row>
  <row>
    <name>New Caledonia</name>
    <alpha2code>NC</alpha2code>
    <alpha3code>NCL</alpha3code>
    <latitude>-20.904305</latitude>
    <longitude>165.618042</longitude>
  </row>
  <row>
    <name>New Zealand</name>
    <alpha2code>NZ</alpha2code>
    <alpha3code>NZL</alpha3code>
    <latitude>-40.900557</latitude>
    <longitude>174.885971</longitude>
  </row>
  <row>
    <name>Nicaragua</name>
    <alpha2code>NI</alpha2code>
    <alpha3code>NIC</alpha3code>
    <latitude>12.865416</latitude>
    <longitude>-85.207229</longitude>
  </row>
  <row>
    <name>Niger</name>
    <alpha2code>NE</alpha2code>
    <alpha3code>NER</alpha3code>
    <latitude>17.607789</latitude>
    <longitude>8.081666</longitude>
  </row>
  <row>
    <name>Nigeria</name>
    <alpha2code>NG</alpha2code>
    <alpha3code>NGA</alpha3code>
    <latitude>9.081999</latitude>
    <longitude>8.675277</longitude>
  </row>
  <row>
    <name>Niue</name>
    <alpha2code>NU</alpha2code>
    <alpha3code>NIU</alpha3code>
    <latitude>-19.054445</latitude>
    <longitude>-169.867233</longitude>
  </row>
  <row>
    <name>Norfolk Island</name>
    <alpha2code>NF</alpha2code>
    <alpha3code>NFK</alpha3code>
    <latitude>-29.040835</latitude>
    <longitude>167.954712</longitude>
  </row>
  <row>
    <name>North Korea</name>
    <alpha2code>KP</alpha2code>
    <alpha3code>PRK</alpha3code>
    <latitude>40.339852</latitude>
    <longitude>127.510093</longitude>
  </row>
  <row>
    <name>North Macedonia</name>
    <alpha2code>MK</alpha2code>
    <alpha3code>MKD</alpha3code>
    <latitude>41.608635</latitude>
    <longitude>21.745275</longitude>
  </row>
  <row>
    <name>Northern Mariana Islands</name>
    <alpha2code>MP</alpha2code>
    <alpha3code>MNP</alpha3code>
    <latitude>17.33083</latitude>
    <longitude>145.38469</longitude>
  </row>
  <row>
    <name>Norway</name>
    <alpha2code>NO</alpha2code>
    <alpha3code>NOR</alpha3code>
    <latitude>60.472024</latitude>
    <longitude>8.468946</longitude>
  </row>
  <row>
    <name>Oman</name>
    <alpha2code>OM</alpha2code>
    <alpha3code>OMN</alpha3code>
    <latitude>21.512583</latitude>
    <longitude>55.923255</longitude>
  </row>
  <row>
    <name>Pakistan</name>
    <alpha2code>PK</alpha2code>
    <alpha3code>PAK</alpha3code>
    <latitude>30.375321</latitude>
    <longitude>69.345116</longitude>
  </row>
  <row>
    <name>Palau</name>
    <alpha2code>PW</alpha2code>
    <alpha3code>PLW</alpha3code>
    <latitude>7.51498</latitude>
    <longitude>134.58252</longitude>
  </row>
  <row>
    <name>Palestine</name>
    <alpha2code>PS</alpha2code>
    <alpha3code>PSE</alpha3code>
    <latitude>31.952162</latitude>
    <longitude>35.233154</longitude>
  </row>
  <row>
    <name>Panama</name>
    <alpha2code>PA</alpha2code>
    <alpha3code>PAN</alpha3code>
    <latitude>8.537981</latitude>
    <longitude>-80.782127</longitude>
  </row>
  <row>
    <name>Papua New Guinea</name>
    <alpha2code>PG</alpha2code>
    <alpha3code>PNG</alpha3code>
    <latitude>-6.314993</latitude>
    <longitude>143.95555</longitude>
  </row>
  <row>
    <name>Paraguay</name>
    <alpha2code>PY</alpha2code>
    <alpha3code>PRY</alpha3code>
    <latitude>-23.442503</latitude>
    <longitude>-58.443832</longitude>
  </row>
  <row>
    <name>Peru</name>
    <alpha2code>PE</alpha2code>
    <alpha3code>PER</alpha3code>
    <latitude>-9.189967</latitude>
    <longitude>-75.015152</longitude>
  </row>
  <row>
    <name>Philippines</name>
    <alpha2code>PH</alpha2code>
    <alpha3code>PHL</alpha3code>
    <latitude>12.879721</latitude>
    <longitude>121.774017</longitude>
  </row>
  <row>
    <name>Pitcairn</name>
    <alpha2code>PN</alpha2code>
    <alpha3code>PCN</alpha3code>
    <latitude>-24.703615</latitude>
    <longitude>-127.439308</longitude>
  </row>
  <row>
    <name>Poland</name>
    <alpha2code>PL</alpha2code>
    <alpha3code>POL</alpha3code>
    <latitude>51.919438</latitude>
    <longitude>19.145136</longitude>
  </row>
  <row>
    <name>Portugal</name>
    <alpha2code>PT</alpha2code>
    <alpha3code>PRT</alpha3code>
    <latitude>39.399872</latitude>
    <longitude>-8.224454</longitude>
  </row>
  <row>
    <name>Puerto Rico</name>
    <alpha2code>PR</alpha2code>
    <alpha3code>PRI</alpha3code>
    <latitude>18.220833</latitude>
    <longitude>-66.590149</longitude>
  </row>
  <row>
    <name>Qatar</name>
    <alpha2code>QA</alpha2code>
    <alpha3code>QAT</alpha3code>
    <latitude>25.354826</latitude>
    <longitude>51.183884</longitude>
  </row>
  <row>
    <name>Reunion</name>
    <alpha2code>RE</alpha2code>
    <alpha3code>REU</alpha3code>
    <latitude>-21.115141</latitude>
    <longitude>55.536384</longitude>
  </row>
  <row>
    <name>Romania</name>
    <alpha2code>RO</alpha2code>
    <alpha3code>ROU</alpha3code>
    <latitude>45.943161</latitude>
    <longitude>24.96676</longitude>
  </row>
  <row>
    <name>Russia</name>
    <alpha2code>RU</alpha2code>
    <alpha3code>RUS</alpha3code>
    <latitude>61.52401</latitude>
    <longitude>105.318756</longitude>
  </row>
  <row>
    <name>Rwanda</name>
    <alpha2code>RW</alpha2code>
    <alpha3code>RWA</alpha3code>
    <latitude>-1.940278</latitude>
    <longitude>29.873888</longitude>
  </row>
  <row>
    <name>Saint Barthélemy</name>
    <alpha2code>BL</alpha2code>
    <alpha3code>BLM</alpha3code>
    <latitude>17.9139222</latitude>
    <longitude>-62.8338521</longitude>
  </row>
  <row>
    <name>Saint Helena, Ascension and Tristan da Cunha</name>
    <alpha2code>SH</alpha2code>
    <alpha3code>SHN</alpha3code>
    <latitude>-24.143474</latitude>
    <longitude>-10.030696</longitude>
  </row>
  <row>
    <name>Saint Kitts and Nevis</name>
    <alpha2code>KN</alpha2code>
    <alpha3code>KNA</alpha3code>
    <latitude>17.357822</latitude>
    <longitude>-62.782998</longitude>
  </row>
  <row>
    <name>Saint Lucia</name>
    <alpha2code>LC</alpha2code>
    <alpha3code>LCA</alpha3code>
    <latitude>13.909444</latitude>
    <longitude>-60.978893</longitude>
  </row>
  <row>
    <name>Saint Martin</name>
    <alpha2code>MF</alpha2code>
    <alpha3code>MAF</alpha3code>
    <latitude>18.075277</latitude>
    <longitude>-63.060001</longitude>
  </row>
  <row>
    <name>Saint Pierre and Miquelon</name>
    <alpha2code>PM</alpha2code>
    <alpha3code>SPM</alpha3code>
    <latitude>46.941936</latitude>
    <longitude>-56.27111</longitude>
  </row>
  <row>
    <name>Samoa</name>
    <alpha2code>WS</alpha2code>
    <alpha3code>WSM</alpha3code>
    <latitude>-13.759029</latitude>
    <longitude>-172.104629</longitude>
  </row>
  <row>
    <name>San Marino</name>
    <alpha2code>SM</alpha2code>
    <alpha3code>SMR</alpha3code>
    <latitude>43.94236</latitude>
    <longitude>12.457777</longitude>
  </row>
  <row>
    <name>Sao Tome and Principe</name>
    <alpha2code>ST</alpha2code>
    <alpha3code>STP</alpha3code>
    <latitude>0.18636</latitude>
    <longitude>6.613081</longitude>
  </row>
  <row>
    <name>Saudi Arabia</name>
    <alpha2code>SA</alpha2code>
    <alpha3code>SAU</alpha3code>
    <latitude>23.885942</latitude>
    <longitude>45.079162</longitude>
  </row>
  <row>
    <name>Senegal</name>
    <alpha2code>SN</alpha2code>
    <alpha3code>SEN</alpha3code>
    <latitude>14.497401</latitude>
    <longitude>-14.452362</longitude>
  </row>
  <row>
    <name>Serbia</name>
    <alpha2code>RS</alpha2code>
    <alpha3code>SRB</alpha3code>
    <latitude>44.016521</latitude>
    <longitude>21.005859</longitude>
  </row>
  <row>
    <name>Seychelles</name>
    <alpha2code>SC</alpha2code>
    <alpha3code>SYC</alpha3code>
    <latitude>-4.679574</latitude>
    <longitude>55.491977</longitude>
  </row>
  <row>
    <name>Sierra Leone</name>
    <alpha2code>SL</alpha2code>
    <alpha3code>SLE</alpha3code>
    <latitude>8.460555</latitude>
    <longitude>-11.779889</longitude>
  </row>
  <row>
    <name>Singapore</name>
    <alpha2code>SG</alpha2code>
    <alpha3code>SGP</alpha3code>
    <latitude>1.352083</latitude>
    <longitude>103.819836</longitude>
  </row>
  <row>
    <name>Sint Maarten</name>
    <alpha2code>SX</alpha2code>
    <alpha3code>SXM</alpha3code>
    <latitude>18.0347188</latitude>
    <longitude>-63.0681114</longitude>
  </row>
  <row>
    <name>Slovakia</name>
    <alpha2code>SK</alpha2code>
    <alpha3code>SVK</alpha3code>
    <latitude>48.669026</latitude>
    <longitude>19.699024</longitude>
  </row>
  <row>
    <name>Slovenia</name>
    <alpha2code>SI</alpha2code>
    <alpha3code>SVN</alpha3code>
    <latitude>46.151241</latitude>
    <longitude>14.995463</longitude>
  </row>
  <row>
    <name>Solomon Islands</name>
    <alpha2code>SB</alpha2code>
    <alpha3code>SLB</alpha3code>
    <latitude>-9.64571</latitude>
    <longitude>160.156194</longitude>
  </row>
  <row>
    <name>Somalia</name>
    <alpha2code>SO</alpha2code>
    <alpha3code>SOM</alpha3code>
    <latitude>5.152149</latitude>
    <longitude>46.199616</longitude>
  </row>
  <row>
    <name>South Africa</name>
    <alpha2code>ZA</alpha2code>
    <alpha3code>ZAF</alpha3code>
    <latitude>-30.559482</latitude>
    <longitude>22.937506</longitude>
  </row>
  <row>
    <name>South Georgia and the South Sandwich Islands</name>
    <alpha2code>GS</alpha2code>
    <alpha3code>SGS</alpha3code>
    <latitude>-54.429579</latitude>
    <longitude>-36.587909</longitude>
  </row>
  <row>
    <name>South Korea</name>
    <alpha2code>KR</alpha2code>
    <alpha3code>KOR</alpha3code>
    <latitude>35.907757</latitude>
    <longitude>127.766922</longitude>
  </row>
  <row>
    <name>South Sudan</name>
    <alpha2code>SS</alpha2code>
    <alpha3code>SSD</alpha3code>
    <latitude>7.8626845</latitude>
    <longitude>29.6949232</longitude>
  </row>
  <row>
    <name>Spain</name>
    <alpha2code>ES</alpha2code>
    <alpha3code>ESP</alpha3code>
    <latitude>40.463667</latitude>
    <longitude>-3.74922</longitude>
  </row>
  <row>
    <name>Sri Lanka</name>
    <alpha2code>LK</alpha2code>
    <alpha3code>LKA</alpha3code>
    <latitude>7.873054</latitude>
    <longitude>80.771797</longitude>
  </row>
  <row>
    <name>St. Vincent Grenadines</name>
    <alpha2code>VC</alpha2code>
    <alpha3code>VCT</alpha3code>
    <latitude>12.984305</latitude>
    <longitude>-61.287228</longitude>
  </row>
  <row>
    <name>Sudan</name>
    <alpha2code>SD</alpha2code>
    <alpha3code>SDN</alpha3code>
    <latitude>12.862807</latitude>
    <longitude>30.217636</longitude>
  </row>
  <row>
    <name>Suriname</name>
    <alpha2code>SR</alpha2code>
    <alpha3code>SUR</alpha3code>
    <latitude>3.919305</latitude>
    <longitude>-56.027783</longitude>
  </row>
  <row>
    <name>Svalbard and Jan Mayen</name>
    <alpha2code>SJ</alpha2code>
    <alpha3code>SJM</alpha3code>
    <latitude>77.553604</latitude>
    <longitude>23.670272</longitude>
  </row>
  <row>
    <name>Sweden</name>
    <alpha2code>SE</alpha2code>
    <alpha3code>SWE</alpha3code>
    <latitude>60.128161</latitude>
    <longitude>18.643501</longitude>
  </row>
  <row>
    <name>Switzerland</name>
    <alpha2code>CH</alpha2code>
    <alpha3code>CHE</alpha3code>
    <latitude>46.818188</latitude>
    <longitude>8.227512</longitude>
  </row>
  <row>
    <name>Syria</name>
    <alpha2code>SY</alpha2code>
    <alpha3code>SYR</alpha3code>
    <latitude>34.802075</latitude>
    <longitude>38.996815</longitude>
  </row>
  <row>
    <name>Taiwan</name>
    <alpha2code>TW</alpha2code>
    <alpha3code>TWN</alpha3code>
    <latitude>23.69781</latitude>
    <longitude>120.960515</longitude>
  </row>
  <row>
    <name>Tajikistan</name>
    <alpha2code>TJ</alpha2code>
    <alpha3code>TJK</alpha3code>
    <latitude>38.861034</latitude>
    <longitude>71.276093</longitude>
  </row>
  <row>
    <name>Tanzania</name>
    <alpha2code>TZ</alpha2code>
    <alpha3code>TZA</alpha3code>
    <latitude>-6.369028</latitude>
    <longitude>34.888822</longitude>
  </row>
  <row>
    <name>Thailand</name>
    <alpha2code>TH</alpha2code>
    <alpha3code>THA</alpha3code>
    <latitude>15.870032</latitude>
    <longitude>100.992541</longitude>
  </row>
  <row>
    <name>Timor-Leste</name>
    <alpha2code>TL</alpha2code>
    <alpha3code>TLS</alpha3code>
    <latitude>-8.874217</latitude>
    <longitude>125.727539</longitude>
  </row>
  <row>
    <name>Togo</name>
    <alpha2code>TG</alpha2code>
    <alpha3code>TGO</alpha3code>
    <latitude>8.619543</latitude>
    <longitude>0.824782</longitude>
  </row>
  <row>
    <name>Tokelau</name>
    <alpha2code>TK</alpha2code>
    <alpha3code>TKL</alpha3code>
    <latitude>-8.967363</latitude>
    <longitude>-171.855881</longitude>
  </row>
  <row>
    <name>Tonga</name>
    <alpha2code>TO</alpha2code>
    <alpha3code>TON</alpha3code>
    <latitude>-21.178986</latitude>
    <longitude>-175.198242</longitude>
  </row>
  <row>
    <name>Trinidad and Tobago</name>
    <alpha2code>TT</alpha2code>
    <alpha3code>TTO</alpha3code>
    <latitude>10.691803</latitude>
    <longitude>-61.222503</longitude>
  </row>
  <row>
    <name>Tunisia</name>
    <alpha2code>TN</alpha2code>
    <alpha3code>TUN</alpha3code>
    <latitude>33.886917</latitude>
    <longitude>9.537499</longitude>
  </row>
  <row>
    <name>Turkey</name>
    <alpha2code>TR</alpha2code>
    <alpha3code>TUR</alpha3code>
    <latitude>38.963745</latitude>
    <longitude>35.243322</longitude>
  </row>
  <row>
    <name>Turkmenistan</name>
    <alpha2code>TM</alpha2code>
    <alpha3code>TKM</alpha3code>
    <latitude>38.969719</latitude>
    <longitude>59.556278</longitude>
  </row>
  <row>
    <name>Turks and Caicos</name>
    <alpha2code>TC</alpha2code>
    <alpha3code>TCA</alpha3code>
    <latitude>21.694025</latitude>
    <longitude>-71.797928</longitude>
  </row>
  <row>
    <name>Tuvalu</name>
    <alpha2code>TV</alpha2code>
    <alpha3code>TUV</alpha3code>
    <latitude>-7.109535</latitude>
    <longitude>177.64933</longitude>
  </row>
  <row>
    <name>U.S. Virgin Islands</name>
    <alpha2code>VI</alpha2code>
    <alpha3code>VIR</alpha3code>
    <latitude>18.335765</latitude>
    <longitude>-64.896335</longitude>
  </row>
  <row>
    <name>UAE</name>
    <alpha2code>AE</alpha2code>
    <alpha3code>ARE</alpha3code>
    <latitude>23.424076</latitude>
    <longitude>53.847818</longitude>
  </row>
  <row>
    <name>Uganda</name>
    <alpha2code>UG</alpha2code>
    <alpha3code>UGA</alpha3code>
    <latitude>1.373333</latitude>
    <longitude>32.290275</longitude>
  </row>
  <row>
    <name>UK</name>
    <alpha2code>GB</alpha2code>
    <alpha3code>GBR</alpha3code>
    <latitude>55.378051</latitude>
    <longitude>-3.435973</longitude>
  </row>
  <row>
    <name>Ukraine</name>
    <alpha2code>UA</alpha2code>
    <alpha3code>UKR</alpha3code>
    <latitude>48.379433</latitude>
    <longitude>31.16558</longitude>
  </row>
  <row>
    <name>United States Minor Outlying Islands</name>
    <alpha2code>UM</alpha2code>
    <alpha3code>UMI</alpha3code>
    <latitude>19.295374</latitude>
    <longitude>166.6280441</longitude>
  </row>
  <row>
    <name>Uruguay</name>
    <alpha2code>UY</alpha2code>
    <alpha3code>URY</alpha3code>
    <latitude>-32.522779</latitude>
    <longitude>-55.765835</longitude>
  </row>
  <row>
    <name>USA</name>
    <alpha2code>US</alpha2code>
    <alpha3code>USA</alpha3code>
    <latitude>37.09024</latitude>
    <longitude>-95.712891</longitude>
  </row>
  <row>
    <name>Uzbekistan</name>
    <alpha2code>UZ</alpha2code>
    <alpha3code>UZB</alpha3code>
    <latitude>41.377491</latitude>
    <longitude>64.585262</longitude>
  </row>
  <row>
    <name>Vanuatu</name>
    <alpha2code>VU</alpha2code>
    <alpha3code>VUT</alpha3code>
    <latitude>-15.376706</latitude>
    <longitude>166.959158</longitude>
  </row>
  <row>
    <name>Vatican City</name>
    <alpha2code>VA</alpha2code>
    <alpha3code>VAT</alpha3code>
    <latitude>41.902916</latitude>
    <longitude>12.453389</longitude>
  </row>
  <row>
    <name>Venezuela</name>
    <alpha2code>VE</alpha2code>
    <alpha3code>VEN</alpha3code>
    <latitude>6.42375</latitude>
    <longitude>-66.58973</longitude>
  </row>
  <row>
    <name>Vietnam</name>
    <alpha2code>VN</alpha2code>
    <alpha3code>VNM</alpha3code>
    <latitude>14.058324</latitude>
    <longitude>108.277199</longitude>
  </row>
  <row>
    <name>Wallis and Futuna</name>
    <alpha2code>WF</alpha2code>
    <alpha3code>WLF</alpha3code>
    <latitude>-13.768752</latitude>
    <longitude>-177.156097</longitude>
  </row>
  <row>
    <name>Western Sahara</name>
    <alpha2code>EH</alpha2code>
    <alpha3code>ESH</alpha3code>
    <latitude>24.215527</latitude>
    <longitude>-12.885834</longitude>
  </row>
  <row>
    <name>Yemen</name>
    <alpha2code>YE</alpha2code>
    <alpha3code>YEM</alpha3code>
    <latitude>15.552727</latitude>
    <longitude>48.516388</longitude>
  </row>
  <row>
    <name>Zambia</name>
    <alpha2code>ZM</alpha2code>
    <alpha3code>ZMB</alpha3code>
    <latitude>-13.133897</latitude>
    <longitude>27.849332</longitude>
  </row>
  <row>
    <name>Zimbabwe</name>
    <alpha2code>ZW</alpha2code>
    <alpha3code>ZWE</alpha3code>
    <latitude>-19.015438</latitude>
    <longitude>29.154857</longitude>
  </row>
</root>